[

    {
        "id": 6439185,
        "name": "Neuilly-le-Bisson",
        "state": "",
        "country": "FR",
        "coord": {
            "lon": 0.23333,
            "lat": 48.5
        }
    },
    {
        "id": 6439187,
        "name": "Neuville-près-Sées",
        "state": "",
        "country": "FR",
        "coord": {
            "lon": 0.23333,
            "lat": 48.650002
        }
    },
    {
        "id": 6439188,
        "name": "Neuville-sur-Touques",
        "state": "",
        "country": "FR",
        "coord": {
            "lon": 0.28333,
            "lat": 48.858158
        }
    },
    {
        "id": 6439189,
        "name": "Neuvy-au-Houlme",
        "state": "",
        "country": "FR",
        "coord": {
            "lon": -0.2,
            "lat": 48.816669
        }
    },
    {
        "id": 6439191,
        "name": "Nonant-le-Pin",
        "state": "",
        "country": "FR",
        "coord": {
            "lon": 0.21667,
            "lat": 48.700001
        }
    },
    {
        "id": 6439193,
        "name": "Notre-Dame-du-Rocher",
        "state": "",
        "country": "FR",
        "coord": {
            "lon": -0.4,
            "lat": 48.799999
        }
    },
    {
        "id": 6439194,
        "name": "Occagnes",
        "state": "",
        "country": "FR",
        "coord": {
            "lon": -0.06667,
            "lat": 48.783329
        }
    },
    {
        "id": 6439195,
        "name": "Omméel",
        "state": "",
        "country": "FR",
        "coord": {
            "lon": 0.15,
            "lat": 48.799999
        }
    },
    {
        "id": 6439197,
        "name": "Origny-le-Butin",
        "state": "",
        "country": "FR",
        "coord": {
            "lon": 0.46667,
            "lat": 48.366669
        }
    },
    {
        "id": 6439198,
        "name": "Origny-le-Roux",
        "state": "",
        "country": "FR",
        "coord": {
            "lon": 0.41667,
            "lat": 48.349998
        }
    },
    {
        "id": 6439199,
        "name": "Orville",
        "state": "",
        "country": "FR",
        "coord": {
            "lon": 0.26667,
            "lat": 48.883331
        }
    },
    {
        "id": 6439201,
        "name": "Parfondeval",
        "state": "",
        "country": "FR",
        "coord": {
            "lon": 0.5,
            "lat": 48.48333
        }
    },
    {
        "id": 6439202,
        "name": "Perrou",
        "state": "",
        "country": "FR",
        "coord": {
            "lon": -0.55983,
            "lat": 48.572121
        }
    },
    {
        "id": 6439203,
        "name": "Pervenchères",
        "state": "",
        "country": "FR",
        "coord": {
            "lon": 0.43333,
            "lat": 48.433331
        }
    },
    {
        "id": 6439204,
        "name": "Planches",
        "state": "",
        "country": "FR",
        "coord": {
            "lon": 0.36667,
            "lat": 48.700001
        }
    },
    {
        "id": 6439207,
        "name": "Pouvrai",
        "state": "",
        "country": "FR",
        "coord": {
            "lon": 0.51667,
            "lat": 48.283329
        }
    },
    {
        "id": 6439208,
        "name": "Prépotin",
        "state": "",
        "country": "FR",
        "coord": {
            "lon": 0.58333,
            "lat": 48.616669
        }
    },
    {
        "id": 6439210,
        "name": "Écouves",
        "state": "",
        "country": "FR",
        "coord": {
            "lon": 0.1025,
            "lat": 48.5028
        }
    },
    {
        "id": 6439211,
        "name": "Randonnai",
        "state": "",
        "country": "FR",
        "coord": {
            "lon": 0.68333,
            "lat": 48.650002
        }
    },
    {
        "id": 6439212,
        "name": "Rémalard en Perche",
        "state": "",
        "country": "FR",
        "coord": {
            "lon": 0.78333,
            "lat": 48.433331
        }
    },
    {
        "id": 6439217,
        "name": "Rônai",
        "state": "",
        "country": "FR",
        "coord": {
            "lon": -0.13333,
            "lat": 48.816669
        }
    },
    {
        "id": 6439218,
        "name": "Ronfeugerai",
        "state": "",
        "country": "FR",
        "coord": {
            "lon": -0.46667,
            "lat": 48.783329
        }
    },
    {
        "id": 6439221,
        "name": "Saint-Agnan-sur-Erre",
        "state": "",
        "country": "FR",
        "coord": {
            "lon": 0.73333,
            "lat": 48.316669
        }
    },
    {
        "id": 6439223,
        "name": "Saint-André-de-Briouze",
        "state": "",
        "country": "FR",
        "coord": {
            "lon": -0.3,
            "lat": 48.73333
        }
    },
    {
        "id": 6439224,
        "name": "Saint-André-de-Messei",
        "state": "",
        "country": "FR",
        "coord": {
            "lon": -0.52333,
            "lat": 48.694759
        }
    },
    {
        "id": 6439227,
        "name": "Saint-Aubin-d'Appenai",
        "state": "",
        "country": "FR",
        "coord": {
            "lon": 0.33333,
            "lat": 48.533329
        }
    },
    {
        "id": 6439228,
        "name": "Saint-Aubin-de-Bonneval",
        "state": "",
        "country": "FR",
        "coord": {
            "lon": 0.37834,
            "lat": 48.94128
        }
    },
    {
        "id": 6439229,
        "name": "Saint-Aubin-de-Courteraie",
        "state": "",
        "country": "FR",
        "coord": {
            "lon": 0.43333,
            "lat": 48.616669
        }
    },
    {
        "id": 6439231,
        "name": "Saint-Bômer-les-Forges",
        "state": "",
        "country": "FR",
        "coord": {
            "lon": -0.63293,
            "lat": 48.6441
        }
    },
    {
        "id": 6439236,
        "name": "Boischampré",
        "state": "",
        "country": "FR",
        "coord": {
            "lon": 0.0,
            "lat": 48.666672
        }
    },
    {
        "id": 6439237,
        "name": "Saint-Clair-de-Halouze",
        "state": "",
        "country": "FR",
        "coord": {
            "lon": -0.62719,
            "lat": 48.6791
        }
    },
    {
        "id": 6439240,
        "name": "Saint-Cyr-la-Rosière",
        "state": "",
        "country": "FR",
        "coord": {
            "lon": 0.63333,
            "lat": 48.333328
        }
    },
    {
        "id": 6439242,
        "name": "Saint-Denis-sur-Huisne",
        "state": "",
        "country": "FR",
        "coord": {
            "lon": 0.55,
            "lat": 48.466671
        }
    },
    {
        "id": 6439244,
        "name": "Saint-Didier-sous-Écouves",
        "state": "",
        "country": "FR",
        "coord": {
            "lon": -0.0361,
            "lat": 48.536999
        }
    },
    {
        "id": 6439245,
        "name": "Saint-Ellier-les-Bois",
        "state": "",
        "country": "FR",
        "coord": {
            "lon": -0.1,
            "lat": 48.51667
        }
    },
    {
        "id": 6439247,
        "name": "Sainte-Gauburge-Sainte-Colombe",
        "state": "",
        "country": "FR",
        "coord": {
            "lon": 0.431,
            "lat": 48.714298
        }
    },
    {
        "id": 6439249,
        "name": "Saint-Georges-des-Groseillers",
        "state": "",
        "country": "FR",
        "coord": {
            "lon": -0.56667,
            "lat": 48.76667
        }
    },
    {
        "id": 6439250,
        "name": "Saint-Germain-d'Aunay",
        "state": "",
        "country": "FR",
        "coord": {
            "lon": 0.378,
            "lat": 48.92532
        }
    },
    {
        "id": 6439252,
        "name": "Saint-Germain-de-la-Coudre",
        "state": "",
        "country": "FR",
        "coord": {
            "lon": 0.61667,
            "lat": 48.283329
        }
    },
    {
        "id": 6439257,
        "name": "Saint-Gervais-des-Sablons",
        "state": "",
        "country": "FR",
        "coord": {
            "lon": 0.08333,
            "lat": 48.900002
        }
    },
    {
        "id": 6439258,
        "name": "Saint-Gervais-du-Perron",
        "state": "",
        "country": "FR",
        "coord": {
            "lon": 0.15,
            "lat": 48.533329
        }
    },
    {
        "id": 6439263,
        "name": "Sainte-Honorine-la-Chardonne",
        "state": "",
        "country": "FR",
        "coord": {
            "lon": -0.48333,
            "lat": 48.816669
        }
    },
    {
        "id": 6439264,
        "name": "Sainte-Honorine-la-Guillaume",
        "state": "",
        "country": "FR",
        "coord": {
            "lon": -0.38333,
            "lat": 48.783329
        }
    },
    {
        "id": 6439267,
        "name": "Saint-Jouin-de-Blavou",
        "state": "",
        "country": "FR",
        "coord": {
            "lon": 0.46667,
            "lat": 48.450001
        }
    },
    {
        "id": 6439269,
        "name": "Saint-Langis-lès-Mortagne",
        "state": "",
        "country": "FR",
        "coord": {
            "lon": 0.53333,
            "lat": 48.51667
        }
    },
    {
        "id": 6439270,
        "name": "Saint-Léger-sur-Sarthe",
        "state": "",
        "country": "FR",
        "coord": {
            "lon": 0.33333,
            "lat": 48.5
        }
    },
    {
        "id": 6439272,
        "name": "Saint-Loyer-des-Champs",
        "state": "",
        "country": "FR",
        "coord": {
            "lon": 0.01667,
            "lat": 48.700001
        }
    },
    {
        "id": 6439276,
        "name": "Saint-Mars-d'Égrenne",
        "state": "",
        "country": "FR",
        "coord": {
            "lon": -0.73333,
            "lat": 48.566669
        }
    },
    {
        "id": 6439277,
        "name": "Saint-Martin-d'Écublei",
        "state": "",
        "country": "FR",
        "coord": {
            "lon": 0.68333,
            "lat": 48.783329
        }
    },
    {
        "id": 6439279,
        "name": "Saint-Martin-du-Vieux-Bellême",
        "state": "",
        "country": "FR",
        "coord": {
            "lon": 0.55,
            "lat": 48.383331
        }
    },
    {
        "id": 6439280,
        "name": "Saint-Martin-l'Aiguillon",
        "state": "",
        "country": "FR",
        "coord": {
            "lon": -0.18333,
            "lat": 48.616669
        }
    },
    {
        "id": 6439282,
        "name": "Charencey",
        "state": "",
        "country": "FR",
        "coord": {
            "lon": 0.76667,
            "lat": 48.650002
        }
    },
    {
        "id": 6439284,
        "name": "Saint-Michel-des-Andaines",
        "state": "",
        "country": "FR",
        "coord": {
            "lon": -0.41598,
            "lat": 48.579842
        }
    },
    {
        "id": 6439285,
        "name": "Saint-Nicolas-des-Laitiers",
        "state": "",
        "country": "FR",
        "coord": {
            "lon": 0.41667,
            "lat": 48.833328
        }
    },
    {
        "id": 6439286,
        "name": "Saint-Nicolas-de-Sommaire",
        "state": "",
        "country": "FR",
        "coord": {
            "lon": 0.6,
            "lat": 48.816669
        }
    },
    {
        "id": 6439287,
        "name": "Sainte-Opportune",
        "state": "",
        "country": "FR",
        "coord": {
            "lon": -0.41667,
            "lat": 48.73333
        }
    },
    {
        "id": 6439294,
        "name": "Saint-Pierre-des-Loges",
        "state": "",
        "country": "FR",
        "coord": {
            "lon": 0.46667,
            "lat": 48.75
        }
    },
    {
        "id": 6439295,
        "name": "Saint-Pierre-du-Regard",
        "state": "",
        "country": "FR",
        "coord": {
            "lon": -0.55,
            "lat": 48.849998
        }
    },
    {
        "id": 6439296,
        "name": "Saint-Pierre-la-Bruyère",
        "state": "",
        "country": "FR",
        "coord": {
            "lon": 0.8,
            "lat": 48.366669
        }
    },
    {
        "id": 6439297,
        "name": "Saint-Pierre-la-Rivière",
        "state": "",
        "country": "FR",
        "coord": {
            "lon": 0.1907,
            "lat": 48.826801
        }
    },
    {
        "id": 6439298,
        "name": "Saint-Quentin-de-Blavou",
        "state": "",
        "country": "FR",
        "coord": {
            "lon": 0.41667,
            "lat": 48.466671
        }
    },
    {
        "id": 6439299,
        "name": "Saint-Quentin-les-Chardonnets",
        "state": "",
        "country": "FR",
        "coord": {
            "lon": -0.75,
            "lat": 48.783329
        }
    },
    {
        "id": 6439300,
        "name": "Saint-Roch-sur-Égrenne",
        "state": "",
        "country": "FR",
        "coord": {
            "lon": -0.75,
            "lat": 48.583328
        }
    },
    {
        "id": 6439301,
        "name": "Saint-Sauveur-de-Carrouges",
        "state": "",
        "country": "FR",
        "coord": {
            "lon": -0.11667,
            "lat": 48.583328
        }
    },
    {
        "id": 6439303,
        "name": "Saint-Sulpice-sur-Risle",
        "state": "",
        "country": "FR",
        "coord": {
            "lon": 0.66667,
            "lat": 48.783329
        }
    },
    {
        "id": 6439305,
        "name": "Saint-Victor-de-Réno",
        "state": "",
        "country": "FR",
        "coord": {
            "lon": 0.7,
            "lat": 48.5
        }
    },
    {
        "id": 6439306,
        "name": "Saires-la-Verrerie",
        "state": "",
        "country": "FR",
        "coord": {
            "lon": -0.49709,
            "lat": 48.68602
        }
    },
    {
        "id": 6439307,
        "name": "Sarceaux",
        "state": "",
        "country": "FR",
        "coord": {
            "lon": -0.05,
            "lat": 48.716671
        }
    },
    {
        "id": 6439308,
        "name": "Ségrie-Fontaine",
        "state": "",
        "country": "FR",
        "coord": {
            "lon": -0.41667,
            "lat": 48.816669
        }
    },
    {
        "id": 6439309,
        "name": "Semallé",
        "state": "",
        "country": "FR",
        "coord": {
            "lon": 0.15,
            "lat": 48.466671
        }
    },
    {
        "id": 6439313,
        "name": "Sévigny",
        "state": "",
        "country": "FR",
        "coord": {
            "lon": -0.01667,
            "lat": 48.783329
        }
    },
    {
        "id": 6439315,
        "name": "Soligny-la-Trappe",
        "state": "",
        "country": "FR",
        "coord": {
            "lon": 0.53333,
            "lat": 48.616669
        }
    },
    {
        "id": 6439318,
        "name": "Taillebois",
        "state": "",
        "country": "FR",
        "coord": {
            "lon": -0.43333,
            "lat": 48.799999
        }
    },
    {
        "id": 6439319,
        "name": "Tanques",
        "state": "",
        "country": "FR",
        "coord": {
            "lon": -0.08333,
            "lat": 48.683331
        }
    },
    {
        "id": 6439320,
        "name": "Tanville",
        "state": "",
        "country": "FR",
        "coord": {
            "lon": 0.0,
            "lat": 48.566669
        }
    },
    {
        "id": 6439321,
        "name": "Tellières-le-Plessis",
        "state": "",
        "country": "FR",
        "coord": {
            "lon": 0.4,
            "lat": 48.633331
        }
    },
    {
        "id": 6439322,
        "name": "Tessé-Froulay",
        "state": "",
        "country": "FR",
        "coord": {
            "lon": -0.43184,
            "lat": 48.527222
        }
    },
    {
        "id": 6439323,
        "name": "Bagnoles de l'Orne Normandie",
        "state": "",
        "country": "FR",
        "coord": {
            "lon": -0.41383,
            "lat": 48.557201
        }
    },
    {
        "id": 6439324,
        "name": "Ticheville",
        "state": "",
        "country": "FR",
        "coord": {
            "lon": 0.26436,
            "lat": 48.908741
        }
    },
    {
        "id": 6439325,
        "name": "Tinchebray-Bocage",
        "state": "",
        "country": "FR",
        "coord": {
            "lon": -0.73333,
            "lat": 48.76667
        }
    },
    {
        "id": 6439327,
        "name": "Touquettes",
        "state": "",
        "country": "FR",
        "coord": {
            "lon": 0.41667,
            "lat": 48.799999
        }
    },
    {
        "id": 6439328,
        "name": "Tourouvre au Perche",
        "state": "",
        "country": "FR",
        "coord": {
            "lon": 0.66667,
            "lat": 48.583328
        }
    },
    {
        "id": 6439330,
        "name": "Trun",
        "state": "",
        "country": "FR",
        "coord": {
            "lon": 0.03333,
            "lat": 48.849998
        }
    },
    {
        "id": 6439331,
        "name": "Urou-et-Crennes",
        "state": "",
        "country": "FR",
        "coord": {
            "lon": 0.01667,
            "lat": 48.75
        }
    },
    {
        "id": 6439332,
        "name": "Valframbert",
        "state": "",
        "country": "FR",
        "coord": {
            "lon": 0.11667,
            "lat": 48.466671
        }
    },
    {
        "id": 6439333,
        "name": "Vaunoise",
        "state": "",
        "country": "FR",
        "coord": {
            "lon": 0.48333,
            "lat": 48.349998
        }
    },
    {
        "id": 6439336,
        "name": "Villebadin",
        "state": "",
        "country": "FR",
        "coord": {
            "lon": 0.16667,
            "lat": 48.783329
        }
    },
    {
        "id": 6439337,
        "name": "Villedieu-lès-Bailleul",
        "state": "",
        "country": "FR",
        "coord": {
            "lon": 0.01667,
            "lat": 48.816669
        }
    },
    {
        "id": 6439338,
        "name": "Villers-en-Ouche",
        "state": "",
        "country": "FR",
        "coord": {
            "lon": 0.4561,
            "lat": 48.860882
        }
    },
    {
        "id": 6439339,
        "name": "Villiers-sous-Mortagne",
        "state": "",
        "country": "FR",
        "coord": {
            "lon": 0.6,
            "lat": 48.533329
        }
    },
    {
        "id": 6439340,
        "name": "Vimoutiers",
        "state": "",
        "country": "FR",
        "coord": {
            "lon": 0.1988,
            "lat": 48.927601
        }
    },
    {
        "id": 6439341,
        "name": "Vingt-Hanaps",
        "state": "",
        "country": "FR",
        "coord": {
            "lon": 0.13333,
            "lat": 48.51667
        }
    },
    {
        "id": 6439391,
        "name": "Boulogne-sur-Mer",
        "state": "",
        "country": "FR",
        "coord": {
            "lon": 1.61667,
            "lat": 50.716671
        }
    },
    {
        "id": 6439425,
        "name": "Camiers",
        "state": "",
        "country": "FR",
        "coord": {
            "lon": 1.61667,
            "lat": 50.566669
        }
    },
    {
        "id": 6439436,
        "name": "Carvin",
        "state": "",
        "country": "FR",
        "coord": {
            "lon": 2.96667,
            "lat": 50.48333
        }
    },
    {
        "id": 6439447,
        "name": "Clenleu",
        "state": "",
        "country": "FR",
        "coord": {
            "lon": 1.871,
            "lat": 50.5233
        }
    },
    {
        "id": 6439463,
        "name": "Coupelle-Vieille",
        "state": "",
        "country": "FR",
        "coord": {
            "lon": 2.1,
            "lat": 50.533329
        }
    },
    {
        "id": 6439513,
        "name": "Étaples",
        "state": "",
        "country": "FR",
        "coord": {
            "lon": 1.65,
            "lat": 50.51667
        }
    },
    {
        "id": 6439570,
        "name": "Gouy-Saint-André",
        "state": "",
        "country": "FR",
        "coord": {
            "lon": 1.89806,
            "lat": 50.373611
        }
    },
    {
        "id": 6439604,
        "name": "Hénin-Beaumont",
        "state": "",
        "country": "FR",
        "coord": {
            "lon": 2.93333,
            "lat": 50.416672
        }
    },
    {
        "id": 6439665,
        "name": "Lestrem",
        "state": "",
        "country": "FR",
        "coord": {
            "lon": 2.68333,
            "lat": 50.616669
        }
    },
    {
        "id": 6439676,
        "name": "Ligny-Thilloy",
        "state": "",
        "country": "FR",
        "coord": {
            "lon": 2.82528,
            "lat": 50.084438
        }
    },
    {
        "id": 6439687,
        "name": "Lorgies",
        "state": "",
        "country": "FR",
        "coord": {
            "lon": 2.78333,
            "lat": 50.566669
        }
    },
    {
        "id": 6439732,
        "name": "Montigny-en-Gohelle",
        "state": "",
        "country": "FR",
        "coord": {
            "lon": 2.93333,
            "lat": 50.433331
        }
    },
    {
        "id": 6439733,
        "name": "Mont-Saint-Éloi",
        "state": "",
        "country": "FR",
        "coord": {
            "lon": 2.7,
            "lat": 50.349998
        }
    },
    {
        "id": 6439747,
        "name": "Nesles",
        "state": "",
        "country": "FR",
        "coord": {
            "lon": 1.6568,
            "lat": 50.627701
        }
    },
    {
        "id": 6439748,
        "name": "Neufchâtel-Hardelot",
        "state": "",
        "country": "FR",
        "coord": {
            "lon": 1.63333,
            "lat": 50.616669
        }
    },
    {
        "id": 6439752,
        "name": "Neuville-Saint-Vaast",
        "state": "",
        "country": "FR",
        "coord": {
            "lon": 2.76667,
            "lat": 50.349998
        }
    },
    {
        "id": 6439761,
        "name": "Nortkerque",
        "state": "",
        "country": "FR",
        "coord": {
            "lon": 2.03333,
            "lat": 50.883331
        }
    },
    {
        "id": 6439764,
        "name": "Noyelles-Godault",
        "state": "",
        "country": "FR",
        "coord": {
            "lon": 2.98333,
            "lat": 50.416672
        }
    },
    {
        "id": 6439765,
        "name": "Noyelles-lès-Vermelles",
        "state": "",
        "country": "FR",
        "coord": {
            "lon": 2.71667,
            "lat": 50.48333
        }
    },
    {
        "id": 6439767,
        "name": "Noyelles-sous-Lens",
        "state": "",
        "country": "FR",
        "coord": {
            "lon": 2.86667,
            "lat": 50.433331
        }
    },
    {
        "id": 6439773,
        "name": "Oignies",
        "state": "",
        "country": "FR",
        "coord": {
            "lon": 2.98333,
            "lat": 50.466671
        }
    },
    {
        "id": 6439774,
        "name": "Oisy-le-Verger",
        "state": "",
        "country": "FR",
        "coord": {
            "lon": 3.11667,
            "lat": 50.25
        }
    },
    {
        "id": 6439779,
        "name": "Outreau",
        "state": "",
        "country": "FR",
        "coord": {
            "lon": 1.58333,
            "lat": 50.700001
        }
    },
    {
        "id": 6439781,
        "name": "Oye-Plage",
        "state": "",
        "country": "FR",
        "coord": {
            "lon": 2.05,
            "lat": 50.98333
        }
    },
    {
        "id": 6439798,
        "name": "Pont-à-Vendin",
        "state": "",
        "country": "FR",
        "coord": {
            "lon": 2.88333,
            "lat": 50.466671
        }
    },
    {
        "id": 6439812,
        "name": "Racquinghem",
        "state": "",
        "country": "FR",
        "coord": {
            "lon": 2.36667,
            "lat": 50.700001
        }
    },
    {
        "id": 6439814,
        "name": "Rang-du-Fliers",
        "state": "",
        "country": "FR",
        "coord": {
            "lon": 1.65,
            "lat": 50.416672
        }
    },
    {
        "id": 6439828,
        "name": "Rinxent",
        "state": "",
        "country": "FR",
        "coord": {
            "lon": 1.73333,
            "lat": 50.799999
        }
    },
    {
        "id": 6439829,
        "name": "Rivière",
        "state": "",
        "country": "FR",
        "coord": {
            "lon": 2.68333,
            "lat": 50.23333
        }
    },
    {
        "id": 6439830,
        "name": "Robecq",
        "state": "",
        "country": "FR",
        "coord": {
            "lon": 2.56667,
            "lat": 50.599998
        }
    },
    {
        "id": 6439837,
        "name": "Roquetoire",
        "state": "",
        "country": "FR",
        "coord": {
            "lon": 2.35,
            "lat": 50.666672
        }
    },
    {
        "id": 6439840,
        "name": "Rouvroy",
        "state": "",
        "country": "FR",
        "coord": {
            "lon": 2.9042,
            "lat": 50.3937
        }
    },
    {
        "id": 6439844,
        "name": "Ruminghem",
        "state": "",
        "country": "FR",
        "coord": {
            "lon": 2.15,
            "lat": 50.866669
        }
    },
    {
        "id": 6439849,
        "name": "Sailly-Labourse",
        "state": "",
        "country": "FR",
        "coord": {
            "lon": 2.7,
            "lat": 50.5
        }
    }
]